[
    {
      "name": "Apex Hospital",
      "address": "Vikas Khand, Gomti Nagar",
      "location": "Lucknow",
      "beds": 200,
      "contact_info": "+91-1234567890"
    },
    {
      "name": "Medanta Hospital",
      "address": "Raibareli Road",
      "location": "Lucknow",
      "beds": 150,
      "contact_info": "+91-9876544210"
    },
    {
      "name": "Sahara Hospital",
      "address": "Gomti Nagar",
      "location": "Lucknow",
      "beds": 300,
      "contact_info": "+91-9999999999"
    },
    {
      "name": "Fortis Hospital",
      "address": "Sector 62",
      "location": "Noida",
      "beds": 250,
      "contact_info": "+91-9876543222"
    },
    {
      "name": "Max Hospital",
      "address": "Sector 19",
      "location": "Noida",
      "beds": 180,
      "contact_info": "+91-1234567999"
    },
    {
      "name": "Apollo Hospital",
      "address": "Sector 26",
      "location": "Noida",
      "beds": 300,
      "contact_info": "+91-9955443322"
    },
    {
      "name": "CHL Hospital",
      "address": "Dewas Road",
      "location": "Ujjain",
      "beds": 120,
      "contact_info": "+91-1234567998"
    },
    {
      "name": "Mahakal Hospital",
      "address": "Nanakheda",
      "location": "Ujjain",
      "beds": 100,
      "contact_info": "+91-9876543223"
    },
    {
      "name": "Vikram Hospital",
      "address": "Freeganj",
      "location": "Ujjain",
      "beds": 150,
      "contact_info": "+91-9922553344"
    },
    {
      "name": "Jaipur Hospital",
      "address": "Tonk Road",
      "location": "Jaipur",
      "beds": 300,
      "contact_info": "+91-1234567997"
    },
    {
      "name": "City Hospital",
      "address": "Malviya Nagar",
      "location": "Jaipur",
      "beds": 200,
      "contact_info": "+91-9855543210"
    },
    {
      "name": "SMS Hospital",
      "address": "Jawahar Lal Nehru Marg",
      "location": "Jaipur",
      "beds": 500,
      "contact_info": "+91-9999999990"
    },
    {
      "name": "Indore Hospital",
      "address": "Ring Road",
      "location": "Indore",
      "beds": 250,
      "contact_info": "+91-1234567996"
    },
    {
      "name": "CHL Apollo Hospital",
      "address": "AB Road",
      "location": "Indore",
      "beds": 300,
      "contact_info": "+91-9876543209"
    },
    {
      "name": "Gokuldas Hospital",
      "address": "Sarafa",
      "location": "Indore",
      "beds": 150,
      "contact_info": "+91-9999899910"
    },
    {
      "name": "Hyderabad Hospital",
      "address": "Banjara Hills",
      "location": "Hyderabad",
      "beds": 400,
      "contact_info": "+91-1234567995"
    },
    {
      "name": "Apollo Hospitals",
      "address": "Jubilee Hills",
      "location": "Hyderabad",
      "beds": 350,
      "contact_info": "+91-9876543230"
    },
    {
      "name": "Yashoda Hospitals",
      "address": "Somajiguda",
      "location": "Hyderabad",
      "beds": 300,
      "contact_info": "+91-9999999992"
    },
    {
      "name": "Nagpur Hospital",
      "address": "Dhantoli",
      "location": "Nagpur",
      "beds": 200,
      "contact_info": "+91-1234567991"
    },
    {
      "name": "Wockhardt Hospitals",
      "address": "Nandanvan",
      "location": "Nagpur",
      "beds": 180,
      "contact_info": "+91-9876543213"
    },
    {
      "name": "Krims Hospital",
      "address": "Central Avenue Road",
      "location": "Nagpur",
      "beds": 150,
      "contact_info": "+91-9999999996"
    },
    {
      "name": "Chennai Hospital",
      "address": "Mount Road",
      "location": "Chennai",
      "beds": 300,
      "contact_info": "+91-1234567993"
    },
    {
      "name": "Apollo Hospitals",
      "address": "Greams Lane",
      "location": "Chennai",
      "beds": 350,
      "contact_info": "+91-9876549210"
    },
    {
      "name": "Fortis Malar Hospital",
      "address": "Adyar",
      "location": "Chennai",
      "beds": 250,
      "contact_info": "+91-9999999991"
    },
    {
      "name": "Bangalore Hospital",
      "address": "Old Airport Road",
      "location": "Bengaluru",
      "beds": 400,
      "contact_info": "+91-1234567334"
    },
    {
      "name": "Manipal Hospitals",
      "address": "HAL Airport Road",
      "location": "Bengaluru",
      "beds": 300,
      "contact_info": "+91-9876543212"
    },
    {
      "name": "Columbia Asia Referral Hospital",
      "address": "Whitefield",
      "location": "Bengaluru",
      "beds": 350,
      "contact_info": "+91-9999999923"
    },
    {
      "name": "Kolkata Hospital",
      "address": "EM Bypass",
      "location": "Kolkata",
      "beds": 500,
      "contact_info": "+91-1234567231"
    },
    {
      "name": "Apollo Gleneagles Hospitals",
      "address": "Salt Lake",
      "location": "Kolkata",
      "beds": 600,
      "contact_info": "+91-9876543211"
    }
]


 